,eic_p,name_p,type_g,country,lat,lon,co2emitted,generation,cf,time_coverage
0,11W0-0000-0043-Z,Datteln,Fossil Hard Coal,Germany,51.629,7.332,994.629,1.0,0.0,0.27849999999999997
1,11WD2BHAF000272F,KW Hafen,Fossil Hard Coal,Germany,53.202,8.516,5434040000.0,6087777.0,0.387,0.9958333333333332
2,11WD2BHAS000271O,KW Hastedt,Fossil Hard Coal,Germany,53.059,8.873,3016463000.0,2946104.0,0.472,0.9958333333333332
3,11WD2BMIT0002731,KW Mittelsbueren,Fossil Gas,Germany,53.129,8.686,2137959000.0,3817784.0,0.6205,0.99725
4,11WD2BUKW000310A,Burghausen_GT,Fossil Gas,Germany,48.182,12.85,1181903000.0,1993289.0,0.47625,0.99725
5,11WD2BUSC0002637,Kraftwerk Buschhaus,Lignite,Germany,52.16,10.967,4144910000.0,3837876.0,0.32925,0.94025
6,11WD2FARK000287K,Kraftwerk Farge,Fossil Hard Coal,Germany,53.203,8.518,6133770000.0,5638299.0,0.46675,0.985
7,11WD2GEBE000177K,Franken I,Fossil Gas,Germany,49.421,11.008,589545200.0,1290642.0,0.044125000000000004,0.99725
8,11WD2GKBB000334V,GKB Mittelsbueren,Fossil Gas,Germany,53.129,8.686,1155613000.0,2866103.0,0.24233333333333337,0.6886666666666666
9,11WD2HANN5C----0,GKW Hannover (GKH),Fossil Hard Coal,Germany,52.42,9.648,6545164000.0,6204480.0,0.653,0.99625
10,11WD2HEKW000297X,Heyden,Fossil Hard Coal,Germany,52.383,8.996,9457620000.0,10595394.0,0.3465,0.99725
11,11WD2HERR5GKW--1,KW Herrenhausen (KWH),Fossil Gas,Germany,52.399,9.681,21897270.0,24982.0,0.007,0.99525
12,11WD2HUKW000298J,Huntorf,Fossil Gas,Germany,53.19,8.409,25272969.0,46384.0,0.004,0.99725
13,11WD2INGO0001783,Ingolstadt,Fossil Oil,Germany,48.762,11.504,620169750.0,487355.0,0.018125000000000002,0.99725
14,11WD2IRSC000179N,Irsching,Fossil Gas,Germany,48.767,11.582,354348140.0,929890.0,0.012000000000000002,0.9972500000000001
15,11WD2KIKW000301W,Kiel,Fossil Hard Coal,Germany,54.339,10.177,4955340000.0,4697407.0,0.416,0.9964999999999999
16,11WD2LIND5G----6,Heizkraftwerk Linden (GKL),Fossil Gas,Germany,52.42,9.648,56323700.0,134104.0,0.405,0.164
17,11WD2MEHR2CSWH-O,KW Mehrum (KWM),Fossil Hard Coal,Germany,52.316,10.093,8109980000.0,9085632.0,0.37675000000000003,0.99725
18,11WD2NO2K000308Z,Nord 2,Fossil Hard Coal,Germany,48.189,11.596,4719794000.0,4474116.0,0.49775,0.80225
19,11WD2STAU0001800,Staudinger,Fossil Gas,Germany,50.091,8.954,5241899700.0,9360548.0,0.26075000000000004,0.99725
20,11WD2SUE1000099L,Sued GuD1,Fossil Gas,Germany,48.114,11.556,357785340.0,646718.0,0.093625,0.801875
21,11WD2SUE2000103B,Sued GuD2,Fossil Gas,Germany,48.114,11.556,2740781400.0,4760798.0,0.4179166666666667,0.7906666666666666
22,11WD2VELT000176H,Veltheim,Fossil Hard Coal,Germany,52.19,8.934,300485000.0,276213.0,0.442,0.236
23,11WD2WBWK000317H,HKW West,Fossil Hard Coal,Germany,52.429,10.768,7726300000.0,5992487.0,0.663625,0.9265
24,11WD2WI1K000303F,Wilhelmshaven,Fossil Hard Coal,Germany,53.565,8.147,8613040000.0,9401806.0,0.35575,0.99725
25,11WD2WILK000286V,Kraftwerk Wilhelmshaven,Fossil Hard Coal,Germany,53.566,8.146,6107562000.0,7017757.0,0.38825,0.78775
26,11WD2ZOLL0002880,Kraftwerk Zolling,Fossil Hard Coal,Germany,48.456,11.801,6026690000.0,7097968.0,0.43125,0.9937499999999999
27,11WD4AL1KU1-S--E,HKW Altbach/Deizisau,Fossil Hard Coal,Germany,48.718,9.373,5256170000.0,5326229.0,0.24514285714285713,0.7815714285714286
28,11WD4DAXLA-2S--6,Rheinhafen-Dampfkraftwerk Karlsruhe,Fossil Gas,Germany,49.015,8.304,69875316.0,183700.0,0.023000000000000003,0.7496666666666667
29,11WD4DAXLA-S---T,Rheinhafen-Dampfkraftwerk Karlsruhe,Fossil Hard Coal,Germany,49.015,8.304,14495160000.0,17455754.0,0.373,0.99725
30,11WD4GKM-2CD4--J,GKM AG TNG,Fossil Hard Coal,Germany,49.446,8.49,14100880000.0,14177032.0,0.4445,0.88075
31,11WD4GKM-2CD7--7,GKM AG Amprion,Fossil Hard Coal,Germany,49.446,8.49,9400610000.0,9451371.0,0.4445,0.88075
32,11WD4GKM-XCD0--3,GKM AG DBEnergie,Fossil Hard Coal,Germany,49.445,8.5,3628955000.0,3335818.0,0.44425,0.88075
33,11WD4HLBR1CS---A,HKW Heilbronn,Fossil Hard Coal,Germany,49.178,9.209,9947200000.0,10858135.0,0.39975,0.99725
34,11WD4HLBR5CS---J,HKW Heilbronn,Fossil Hard Coal,Germany,49.178,9.209,230502000.0,192019.0,0.33699999999999997,0.26
36,11WD4WALK5G----E,Kraftwerk Walheim,Fossil Oil,Germany,49.021,9.158,83237400.0,96695.0,0.02025,0.99725
39,11WD7BERG1S--KWB,Bergkamen,Fossil Hard Coal,Germany,51.622,7.628,9348940000.0,9399428.0,0.38625,0.974
40,11WD7BISC5GKW23O,KW Mainz-Wiesbaden,Fossil Gas,Germany,50.029,8.237,1974928460.0,5272812.0,0.193625,0.855375
41,11WD7BOLA--KWNIK,HKW Niehl,Fossil Gas,Germany,50.974,6.991,3903243900.0,10343706.0,0.44408333333333333,0.7446666666666667
42,11WD7BOLL5B-FREO,Frechen/Wachtberg,Lignite,Germany,50.894,6.791,1190963000.0,804705.0,0.5329999999999999,0.743
43,11WD7BRAU5G-KW-N,GuD Dormagen,Fossil Gas,Germany,51.08,6.828,2745882000.0,5175763.0,0.25325,0.99725
44,11WD7EMSL-G-KW-T,Emsland,Fossil Gas,Germany,52.481,7.306,4885911400.0,12844898.0,0.1635,0.9972500000000001
45,11WD7ENSD2SKW1-4,Kraftwerk Ensdorf,Fossil Hard Coal,Germany,49.293,6.771,346109100.0,278383.0,0.0755,0.997
46,11WD7ENSD5SKW3-E,Ensdorf,Fossil Hard Coal,Germany,49.293,6.771,3244420000.0,3075546.0,0.31125,0.997
47,11WD7FRIM2B-KW-M,Frimmersdorf,Lignite,Germany,51.055,6.576,12371990000.0,9288285.0,0.6703333333333333,0.9113333333333333
48,11WD7FUEH5GMEKW7,HKW Merkenich,Fossil Gas,Germany,51.017,6.963,284562000.0,691644.0,0.188,0.9535
49,11WD7GARE5XELKWD,Elverlingsen,Fossil Hard Coal,Germany,51.277,7.705,1320714000.0,1251969.0,0.151,0.77
50,11WD7GARE5XHAKW5,Hagen-Kabel,Fossil Gas,Germany,51.412,7.492,75478160.0,179710.0,0.0235,0.7715
51,11WD7GARE5XHEKWQ,HERDECKE,Fossil Gas,Germany,51.404,7.415,551641600.0,1477612.0,0.10275000000000001,0.9405
52,11WD7GERS-X-KW-C,Gersteinwerk,Fossil Gas,Germany,51.675,7.717,3959086786.4,9763642.0,0.09624999999999999,0.99725
53,11WD7GKWE2S--KW8,GK-West,Fossil Hard Coal,Germany,51.603,6.658,2839474000.0,2691676.0,0.1985,0.7503333333333333
54,11WD7HERN2S--KWU,Herne,Fossil Hard Coal,Germany,51.551,7.187,7742088000.0,7306449.0,0.30914285714285716,0.8774285714285714
56,11WD7IBBE2S--KW6,Ibbenbüren,Fossil Hard Coal,Germany,52.285,7.739,13043260000.0,13488373.0,0.48775,0.99725
57,11WD7KWHU----KW9,KW Lünen,Fossil Hard Coal,Germany,51.659,7.838,12371290000.0,14214963.0,0.5445,0.99725
58,11WD7KWKN----KW1,Knapsack 1,Fossil Gas,Germany,50.859,6.841,958256000.0,2566760.0,0.09325,0.998
59,11WD7KWKN1GBL203,Knapsack 2,Fossil Gas,Germany,50.859,6.841,1247219000.0,3340769.0,0.22375,0.998
60,11WD7LIES5B-KW-D,Goldenberg,Lignite,Germany,50.861,6.843,509259000.0,407815.0,0.636,0.485
61,11WD7LUDW2GA800M,GuD Ludwigshafen Mitte,Fossil Gas,Germany,49.453,8.433,6443221000.0,11650160.0,0.8089999999999999,0.997
62,11WD7LUDW5GSUEDE,GuD Ludwigshafen Süd,Fossil Gas,Germany,49.453,8.433,4293491000.0,8870658.0,0.7365,0.997
63,11WD7LUNE2S--KW8,Luenen,Fossil Hard Coal,Germany,51.616,7.478,2415058290.0,1961349.0,0.16325,0.971875
64,11WD7MITB1C----N,Bexbach,Fossil Hard Coal,Germany,49.364,7.237,4819993800.0,4846024.0,0.2025,0.944
65,11WD7MITB1S--KWK,Bexbach,Fossil Hard Coal,Germany,49.365,7.235,4819993800.0,4846024.0,0.2025,0.944
66,11WD7NEUR-B-KW-B,Neurath,Lignite,Germany,51.038,6.616,126133560000.0,113967685.0,0.7824285714285715,0.9972500000000001
67,11WD7NIED-B-KW-5,Niederaußem,Lignite,Germany,50.971,6.667,105983130000.0,90827143.0,0.7780357142857143,0.9792500000000001
68,11WD7NORF5G--KWG,Kraftwerk Lausward,Fossil Gas,Germany,51.222,6.732,4963530450.0,9492405.0,0.21375,0.9426666666666667
69,11WD7RHAU5G-3--3,HKW III,Fossil Gas,Germany,49.021,9.158,1264169600.0,3072635.0,0.3745,0.99725
70,11WD7SCHO-S--KWW,Scholven,Fossil Hard Coal,Germany,51.599,7.009,18112710000.0,13007519.0,0.539125,0.99725
71,11WD7STUM----KW9,KW Hamm-Uentrop,Fossil Gas,Germany,51.616,7.478,1503454200.0,4027108.0,0.1355,0.99725
72,11WD7UCHT5XROSOK,Kraftwerk Römerbrücke,Fossil Gas,Germany,49.225,7.016,245387500.0,645116.0,0.148,0.9937499999999999
73,11WD7VOER1S--KWG,Kraftwerk Voerde,Fossil Hard Coal,Germany,51.603,6.658,9843454000.0,10744889.0,0.3925,0.7443333333333334
74,11WD7VOLK5S--KWI,Voelklingen,Fossil Hard Coal,Germany,49.25,6.879,5401995000.0,4655286.0,0.34975,0.972875
75,11WD7WALS1S--KW0,Walsum,Fossil Hard Coal,Germany,51.526,6.72,16897000000.0,16738778.0,0.442375,0.97075
76,11WD7WEIH2S--KWV,Weiher,Fossil Hard Coal,Germany,49.336,7.035,3557204900.0,3474228.0,0.1585,0.97475
77,11WD7WEIS-B-KW-C,Weisweiler,Lignite,Germany,50.833,6.315,73841308821.2,57844661.0,0.5675,0.9972500000000001
78,11WD7WEST1S-KW-K,Westfalen,Fossil Hard Coal,Germany,51.682,7.971,13155120000.0,16474165.0,0.49783333333333335,0.871
79,11WD8BOXB1L----J,KW Boxberg,Lignite,Germany,51.416,14.564,76462660000.0,69542593.0,0.8084375,0.99725
80,11WD8DRES5X---PZ,GTHKW Nossener Bruecke,Fossil Gas,Germany,51.042,13.708,2267981000.0,5512453.0,0.60625,0.99725
81,11WD8JAEN1L----Z,KW Jänschwalde,Lignite,Germany,51.834,14.455,94492560000.0,78034414.0,0.7534166666666667,0.986125
82,11WD8KLIN5X----0,HKW Klingenberg,Lignite,Germany,52.489,13.497,2892382000.0,2316222.0,0.40349999999999997,0.99725
83,11WD8LEIP5X----6,HKW Nord,Fossil Gas,Germany,51.352,12.377,682512000.0,1658882.0,0.284,0.9964999999999999
84,11WD8LICH5G----1,HKW Lichterfelde,Fossil Gas,Germany,52.442,13.453,1136205000.0,1296266.0,0.12875,0.913375
85,11WD8LIPD1L----P,KW Lippendorf,Lignite,Germany,51.178,12.378,43994580000.0,46240556.0,0.741875,0.99725
86,11WD8MITT5G----0,HKW Mitte,Fossil Gas,Germany,52.512,13.421,3060079000.0,7285903.0,0.469,0.99725
87,11WD8MOOR1C----G,HKW Moorburg,Fossil Hard Coal,Germany,53.49,9.949,18665180400.0,21982998.0,0.42425,0.74325
88,11WD8REUT5X----M,HKW Reuter,Fossil Hard Coal,Germany,52.531,13.245,1599686000.0,1332612.0,0.3075,0.99725
89,11WD8REUW1C----4,HKW Reuter West,Fossil Hard Coal,Germany,52.54,13.249,10201920000.0,9377841.0,0.475875,0.99725
90,11WD8ROST1C---P5,Kraftwerk Rostock,Fossil Hard Coal,Germany,54.143,12.133,9373750000.0,11039986.0,0.61425,0.99725
91,11WD8SCHK1L----O,Schkopau,Lignite,Germany,51.4,11.954,22769740000.0,17664213.0,0.561375,0.99725
92,11WD8SCHW5X----D,Industriekraftwerk PCK,Fossil Oil,Germany,53.088,14.244,7908662000.0,6214947.0,0.75975,0.99725
93,11WD8SWPU1L----5,KW Schwarze Pumpe,Lignite,Germany,51.535,14.354,49045620000.0,42957873.0,0.8135,0.99725
94,11WD8TIEF5X----V,HKW Tiefstack,Fossil Gas,Germany,53.525,10.071,2867666800.0,4992042.0,0.41300000000000003,0.99725
95,11WD8WED15C----Q,HKW Wedel,Fossil Hard Coal,Germany,53.568,9.727,5346642000.0,4146827.0,0.47350000000000003,0.99725
96,14W-KW-DU2-EVN-K,Kraftwerk Dürnrohr,Fossil Hard Coal,Austria,48.317,15.917,2499554000.0,2986324.0,0.25475000000000003,0.99725
97,14W-KW-KO2-EVN-5,Kraftwerk Korneuburg,Fossil Gas,Austria,48.317,16.333,176091800.0,423807.0,0.1236,0.7978
98,14W-KW-THE-EVN-7,Kraftwerk Theiß,Fossil Gas,Austria,48.383,15.7,1516151300.0,2637249.0,0.14725,0.847
99,14W-PROD-DO----O,KW Donaustadt,Fossil Gas,Austria,48.183,16.45,1825281000.0,4942099.0,0.358,0.99725
101,14W-PROD-SIM---P,KW Simmering,Fossil Gas,Austria,48.167,16.433,4592724000.0,10933652.0,0.2485,0.99725
102,14W-VOEST-KW---0,voestalpine KW Linz,Fossil Gas,Austria,48.299,14.324,1861937000.0,3640971.0,0.6805,0.99725
103,14W-WDR-KW-----2,DKW Dürnrohr,Fossil Hard Coal,Austria,48.317,15.917,558032000.0,666705.0,0.213,0.942
104,14W-WGM-KW-----J,GDK-Mellach,Fossil Gas,Austria,46.933,15.517,1381921700.0,3741664.0,0.1275,0.99725
105,14W-WML-KW-----0,FHKW Mellach,Fossil Hard Coal,Austria,46.933,15.517,2913541000.0,2784746.0,0.398,0.99725
107,14WENERGIE--WT02,Kraftwerk Timelkam GUD,Fossil Gas,Austria,48.0,13.583,970386000.0,2627398.0,0.18775000000000003,0.99725
108,14WENERGIEAGWR05,Kraftwerk Riedersbach 2,Fossil Hard Coal,Austria,48.033,12.833,485030000.0,521537.0,0.09975,0.99725
109,15WCSEPEL----PPI,Alpiq Csepel Erőmű,Fossil Gas,Hungary,47.428,19.052,894711900.0,2037866.0,0.14425000000000002,0.9987499999999999
110,15WDUME------PPI,Dunamenti Erőmű,Fossil Gas,Hungary,47.328,18.918,1854507791.0,4203106.0,0.15281250000000002,0.9983125
111,15WGONYU-----PP5,Gönyűi Erőmű,Fossil Gas,Hungary,47.738,17.803,2598003000.0,6946532.0,0.4645,0.99875
112,15WKELENF----PP8,Kelenföldi Erőmű,Fossil Gas,Hungary,47.464,19.056,490005800.0,1116077.0,0.25525,0.99875
113,15WKISP------PP6,Kispesti Erőmű,Fossil Gas,Hungary,47.458,19.164,616320000.0,1495329.0,0.39175,0.99875
114,15WLITER-----PPP,Litéri Gázturbinás Erőmű,Fossil Oil,Hungary,47.105,18.018,7565075.0,9231.0,0.0022500000000000003,0.99875
115,15WLORINC----PPF,Lőrinci Gázturbinás Erőmű,Fossil Oil,Hungary,47.721,19.68,10815330.0,13197.0,0.0022500000000000003,0.99875
116,15WMATRA-----PPK,Mátrai Erőmű,Lignite,Hungary,47.79,20.067,18683460000.0,15784806.0,0.7360000000000001,0.9981666666666666
117,15WSAJSZOGED-PP4,Sajószögedi Gázturbinás Erőmű,Fossil Oil,Hungary,47.94,20.968,12883000.0,15720.0,0.00375,0.99875
118,16WLARES-------R,Lares,Fossil Gas,Portugal,40.144,-8.806,3291952000.0,8965012.0,0.309875,0.9984999999999999
119,16WPEGO--------O,Pego C.C.,Fossil Gas,Portugal,39.47,-8.116,2775408200.0,7420877.0,0.253375,0.9984999999999999
120,16WRIBATE------E,Ribatejo,Fossil Gas,Portugal,39.011,-8.95,2749922200.0,7352732.0,0.1785,0.9984999999999999
121,16WRPG---------5,Pego,Fossil Hard Coal,Portugal,39.47,-8.116,12415370000.0,14881186.0,0.738,0.9984999999999999
122,16WRTG---------V,T.Outeiro C.C.,Fossil Gas,Portugal,41.068,-8.457,4726950000.0,12638903.0,0.3645,0.9984999999999999
123,16WSINES1------G,Sines,Fossil Hard Coal,Portugal,37.931,-8.807,31796780000.0,35253527.0,0.853375,0.9984999999999999
124,17W100P100P0235I,BOUCHAIN 1,Fossil Hard Coal,France,50.28,3.31,272060000.0,279601.0,0.134,0.956
125,17W100P100P0236G,CORDEMAIS 4,Fossil Hard Coal,France,47.29,-1.83,5040919000.0,5476691.0,0.2835,0.88725
126,17W100P100P0237E,CORDEMAIS 5,Fossil Hard Coal,France,47.29,-1.83,5253990000.0,5708164.0,0.2815,0.99725
127,17W100P100P0238C,HAVRE 4,Fossil Hard Coal,France,49.49,0.13,5458754000.0,6251215.0,0.3215,0.93275
128,17W100P100P0239A,MAXE 1,Fossil Hard Coal,France,49.16,6.15,275259000.0,299054.0,0.24,0.568
129,17W100P100P0240P,MAXE 2,Fossil Hard Coal,France,49.16,6.15,276026000.0,299887.0,0.256,0.568
130,17W100P100P0241N,VITRY 3,Fossil Hard Coal,France,48.78,2.39,275898000.0,315951.0,0.151,0.957
131,17W100P100P0242L,VITRY 4,Fossil Hard Coal,France,48.78,2.39,280703000.0,321453.0,0.153,0.957
132,17W100P100P0243J,BLENOD 5,Fossil Gas,France,48.92,6.05,2514477000.0,6823379.0,0.4615,0.9835
133,17W100P100P0244H,BOUCHAIN 7,Fossil Gas,France,50.28,3.31,2628389000.0,7132496.0,0.593,0.809
134,17W100P100P0245F,MARTIGUES PONTEAU 5,Fossil Gas,France,43.38,5.04,2072933000.0,5625187.0,0.34575,0.99825
135,17W100P100P0246D,MARTIGUES PONTEAU 6,Fossil Gas,France,43.38,5.04,1748837800.0,4745713.0,0.29225,0.998
136,17W100P100P0247B,ARAMON 1,Fossil Oil,France,43.9,4.68,89779400.0,115994.0,0.012,0.878
137,17W100P100P02489,ARAMON 2,Fossil Oil,France,43.9,4.68,23434400.0,30277.0,0.0025,0.878
138,17W100P100P02497,CORDEMAIS 2,Fossil Oil,France,47.29,-1.83,85769820.0,116970.0,0.007333333333333333,0.924
139,17W100P100P0250M,CORDEMAIS 3,Fossil Oil,France,47.29,-1.83,159653300.0,217730.0,0.009000000000000001,0.9975
140,17W100P100P0251K,PORCHEVILLE 1,Fossil Oil,France,48.97,1.76,25497920.0,32943.0,0.0023333333333333335,0.866
141,17W100P100P0252I,PORCHEVILLE 2,Fossil Oil,France,48.97,1.76,54707910.0,70682.0,0.007333333333333333,0.866
142,17W100P100P0253G,PORCHEVILLE 3,Fossil Oil,France,48.97,1.76,151978700.0,196355.0,0.020666666666666667,0.7160000000000001
143,17W100P100P0254E,PORCHEVILLE 4,Fossil Oil,France,48.97,1.76,151186200.0,195331.0,0.017666666666666667,0.866
144,17W100P100P0255C,ARRIGHI 1,Fossil Oil,France,48.78,2.39,22718170.0,27721.0,0.00625,0.998
145,17W100P100P0256A,ARRIGHI 2,Fossil Oil,France,48.78,2.39,47863720.0,58404.0,0.013000000000000001,0.9975
146,17W100P100P02586,BRENNILIS 1,Fossil Oil,France,48.35,-3.85,12501053.0,13908.0,0.00475,0.99825
147,17W100P100P0260J,BRENNILIS 2,Fossil Oil,France,48.35,-3.85,14149520.0,15742.0,0.0052499999999999995,0.99825
148,17W100P100P0261H,BRENNILIS 3,Fossil Oil,France,48.35,-3.85,35288110.0,43059.0,0.009000000000000001,0.99825
149,17W100P100P0263D,DIRINON 1,Fossil Oil,France,48.4,-4.26,36987260.0,41150.0,0.013999999999999999,0.99825
150,17W100P100P02659,DIRINON 2,Fossil Oil,France,48.4,-4.26,43735680.0,48658.0,0.0165,0.99825
151,17W100P100P02667,GENNEVILLIERS 1,Fossil Gas,France,48.93,2.29,172558820.0,289471.0,0.04675,0.8069999999999999
152,17W100P100P02675,VAIRES 1,Fossil Oil,France,48.87,2.63,69718100.0,85071.0,0.013250000000000001,0.99825
153,17W100P100P02683,VAIRES 2,Fossil Oil,France,48.87,2.63,51574660.0,62932.0,0.01,0.99825
154,17W100P100P02691,VAIRES 3,Fossil Oil,France,48.87,2.63,62838300.0,76676.0,0.012,0.99825
155,17W100P100P0270G,MONTEREAU 5,Fossil Oil,France,48.39,2.96,342448500.0,417859.0,0.06475,0.9964999999999999
156,17W100P100P0271E,MONTEREAU 6,Fossil Oil,France,48.39,2.96,282013500.0,344116.0,0.053,0.99825
157,17W100P100P0318E,FR-GA-MORANT1,Fossil Gas,France,46.25,3.27,1560662000.0,4235073.0,0.3225,0.9405
158,17W100P100P0334G,SPEM,Fossil Gas,France,47.32,-2.14,1963133000.0,5327232.0,0.36025,0.9575
159,17W100P100P0337A,COMBIGOLFE,Fossil Gas,France,43.45,4.9,2375115000.0,6210830.0,0.4175,0.998
160,17W100P100P0340L,Croix-de-Metz,Fossil Gas,France,48.68,5.89,2178091000.0,5803084.0,0.40175,0.9975
161,17W100P100P0341J,Pont-sur-Sambre,Fossil Gas,France,50.23,3.84,2069677000.0,5514237.0,0.391,0.9805
163,17W100P100P0343F,EMILE HUCHET 6,Fossil Hard Coal,France,49.12,6.71,8089920000.0,7126433.0,0.34550000000000003,0.98775
164,17W100P100P0344D,EMILE HUCHET 7,Fossil Gas,France,49.12,6.71,2547161000.0,6786397.0,0.46950000000000003,0.99875
165,17W100P100P0345B,EMILE HUCHET 8,Fossil Gas,France,49.12,6.71,2481263000.0,6610824.0,0.48175,0.9655
166,17W100P100P03469,PROVENCE 5,Fossil Hard Coal,France,43.49,5.5,4313859000.0,4560102.0,0.2245,0.9822500000000001
167,17W100P100P03493,AMFARD14,Fossil Gas,France,49.48,0.22,1194927000.0,2711991.0,0.646,0.998
168,17W100P100P0350I,DK6,Fossil Gas,France,51.03,2.36,6533063000.0,13058846.0,0.4551875,0.9866874999999999
169,17W100P100P0351G,CYCOFOS,Fossil Gas,France,43.45,4.9,1728796000.0,4520732.0,0.30275,0.9955
170,17W100P100P0352E,CYCOFOS TV2,Fossil Gas,France,43.45,4.9,8041220.0,18647.0,0.008749999999999999,0.99525
171,17W100P100P0353C,AMFARD15,Fossil Gas,France,49.48,0.22,1305238000.0,2962352.0,0.7055,0.998
174,17W100P100P03647,PROVENCE 4 BIOMASSE,Biomass,France,43.49,5.5,491066600.0,398270.0,0.1965,0.6839999999999999
175,18W18WSRI4--123V,SOTORIBE 4,Fossil Gas,Spain,43.312,-5.873,651672700.0,1713226.0,0.11499999999999999,1.0
176,18WABO1-12345-0X,ABOÑO 1,Fossil Hard Coal,Spain,43.538,-5.671,7873250000.0,7598745.0,0.635,0.99925
177,18WABO2-12345-0N,ABOÑO 2,Fossil Hard Coal,Spain,43.538,-5.671,12678570000.0,13383696.0,0.7125,1.0
178,18WACE3-12345-00,ACECA 3 IB,Fossil Gas,Spain,39.943,-3.856,707468700.0,1824820.0,0.135,0.99925
179,18WACE4-12345-0R,ACECA 4 UF,Fossil Gas,Spain,39.945,-3.853,1490212000.0,3843800.0,0.2945,0.99925
180,18WALG3-12345--K,ALG3,Fossil Gas,Spain,36.184,-5.388,1586087300.0,4248447.0,0.14808333333333334,0.9993333333333334
181,18WALL1-12345-0K,ANLLARES,Fossil Hard Coal,Spain,42.824,-6.486,2983867000.0,2879834.0,0.237,0.99925
182,18WAMBIETA-12-0S,AMBIETA,Fossil Gas,Spain,43.253,-2.734,1140258500.0,2941141.0,0.10658333333333332,0.99975
183,18WARCOS1-123-0E,ARCOS1,Fossil Gas,Spain,36.675,-5.815,129189107.7,333225.0,0.0245,0.99925
184,18WARCOS2-123-06,ARCOS2,Fossil Gas,Spain,36.675,-5.815,94587987.692,243977.0,0.01875,0.99875
185,18WARCOS3-123-0Z,ARCOS3,Fossil Gas,Spain,36.675,-5.815,1158605800.0,3070512.0,0.10633333333333334,0.9994999999999999
186,18WARRU1-1234-0J,ARRUBAL1,Fossil Gas,Spain,42.437,-2.25,353690180.0,947383.0,0.0685,1.0
187,18WARRU2-1234-0A,ARRUBAL2,Fossil Gas,Spain,42.437,-2.25,1287120000.0,3447642.0,0.25275,0.99875
188,18WBAHIAB-123-0X,BAHIAB,Fossil Gas,Spain,43.362,-3.092,1949248000.0,5027820.0,0.18241666666666667,0.9990833333333334
189,18WBES3-12345-0V,BESOS 3,Fossil Gas,Spain,41.467,2.253,1554200000.0,4085944.0,0.2835,0.99875
190,18WBES4-12345-0L,BESOS 4,Fossil Gas,Spain,41.467,2.253,3516652000.0,9245166.0,0.66075,0.99875
191,18WBES5-123456-T,BESOS 5,Fossil Gas,Spain,41.467,2.253,1324376100.0,3613130.0,0.11958333333333333,0.9994999999999999
192,18WBRR1-12345-0H,BARRIOS,Fossil Hard Coal,Spain,36.184,-5.418,11199270000.0,12159904.0,0.6094999999999999,0.998
193,18WCAMGI10-12-07,CAMPGIB1,Fossil Gas,Spain,36.185,-5.391,1285760.0,3444.0,0.00025,0.99925
194,18WCAMGI20--1-0D,CAMPGIB2,Fossil Gas,Spain,36.185,-5.391,213585000.0,572104.0,0.042,0.99875
195,18WCCO2-12345-0M,CTCOMPOS 2,Fossil Hard Coal,Spain,42.627,-6.563,2368.29,2.0,0.0,0.5875
196,18WCCO3-12345-0C,CTCOMPOS 3,Fossil Hard Coal,Spain,42.627,-6.563,4092309000.0,4073055.0,0.35975,0.99925
197,18WCOL4-12345-02,COLON 4,Fossil Gas,Spain,37.191,-6.944,224646200.0,601730.0,0.044000000000000004,0.99875
198,18WCOM4-12345-0S,COMPOSTI 4,Fossil Hard Coal,Spain,42.627,-6.563,3591920000.0,3683352.0,0.3085,0.99925
199,18WCOM5-12345-0I,COMPOSTI 5,Fossil Hard Coal,Spain,42.627,-6.563,4216090000.0,4323421.0,0.363,0.998
200,18WCTGN1-1234-0C,ESC CART 1,Fossil Gas,Spain,37.606,-0.985,1409165000.0,3774549.0,0.2575,0.99925
201,18WCTGN2-1234-03,ESC CART 2,Fossil Gas,Spain,37.606,-0.985,408385100.0,1093888.0,0.07475,0.99875
202,18WCTGN3-1234-0V,ESC CART 3,Fossil Gas,Spain,37.606,-0.985,695461500.0,1862845.0,0.12875,0.99875
203,18WCTJON1-123-06,CASTEJO1 H,Fossil Gas,Spain,42.174,-1.69,658751100.0,1731837.0,0.11624999999999999,0.99875
204,18WCTJON2-123-0Z,CASTEJO2 I,Fossil Gas,Spain,42.174,-1.69,3043.02,8.0,0.0,0.99875
205,18WCTJON3--1234S,CASTEJO3 H,Fossil Gas,Spain,42.174,-1.69,918747000.0,2369784.0,0.16175,0.99925
206,18WCTN3-12345-04,CASTELLO 3,Fossil Gas,Spain,39.958,-0.006,178700182.31,460933.0,0.01675,0.9986666666666667
207,18WCTN4-123456-C,CASTELLO 4,Fossil Gas,Spain,39.958,-0.006,1963737400.0,5357414.0,0.18125,0.9990833333333334
208,18WCTNU-12345-0U,CASTELNOU,Fossil Gas,Spain,41.216,-0.295,189748410.0,508255.0,0.0185,0.9994999999999999
210,18WECT3-123456-N,ESCAT3,Fossil Gas,Spain,41.289,-0.321,364612320.0,994726.0,0.03541666666666667,0.9993333333333334
211,18WELC1-12345-0U,ELCOGAS,Fossil Hard Coal,Spain,39.03,-3.441,554510000.0,903110.0,0.174,0.575
212,18WESC6-12345-07,ESC IBER 6,Fossil Gas,Spain,41.297,-0.34,360013693.09099996,970818.0,0.034,0.9990833333333334
213,18WESCCC1-123-0T,ESCCC1,Fossil Gas,Spain,37.606,-0.985,344711060.0,906235.0,0.064,0.99925
214,18WESCCC2-123-0L,ESC GDF 2,Fossil Gas,Spain,37.606,-0.985,64011800.0,168285.0,0.012,1.0
215,18WESCCC3-123-0D,ESC GDF 3,Fossil Gas,Spain,37.606,-0.985,319641450.0,840326.0,0.060500000000000005,0.99925
217,18WGUA1-12345-0T,GUARDO 1,Fossil Hard Coal,Spain,42.828,-4.842,574809700.0,502759.0,0.1,0.99925
218,18WGUA2-12345-0J,GUARDO 2,Fossil Hard Coal,Spain,42.828,-4.842,3550791000.0,3748269.0,0.31275,0.99875
219,18WLAD4-12345-0U,LADA 4,Fossil Hard Coal,Spain,43.296,-5.681,5987150000.0,5778413.0,0.47425,1.0
220,18WLIT1-12345-0A,LITORAL 1,Fossil Hard Coal,Spain,36.98,-1.904,11304810000.0,12956419.0,0.6635,0.99925
221,18WLIT2-12345-00,LITORAL 2,Fossil Hard Coal,Spain,36.98,-1.904,10949090000.0,12548716.0,0.63725,0.99925
222,18WMALA1-12345-L,MALA1,Fossil Gas,Spain,36.75,-4.56,2907199000.0,7642936.0,0.52475,0.99925
223,18WMEI1-12345-0I,MEIRAMA,Fossil Hard Coal,Spain,43.078,-8.407,10035510000.0,10290968.0,0.527,0.99925
224,18WNRC2-12345-0G,NARCEA 2,Fossil Hard Coal,Spain,43.337,-6.415,211230630.0,191124.0,0.03525,0.99875
225,18WNRC3-12345-06,NARCEA 3,Fossil Hard Coal,Spain,43.337,-6.415,4587342000.0,4289040.0,0.35225,0.99925
226,18WPALOS1-123-0Z,PALOS1,Fossil Gas,Spain,37.186,-6.886,17308120.0,46361.0,0.0032500000000000003,0.998
227,18WPALOS2-123-0R,PALOS2,Fossil Gas,Spain,37.186,-6.886,309631900.0,829370.0,0.061,0.99925
229,18WPBCN1-12345-D,PBCN1,Fossil Gas,Spain,41.338,2.16,1455425000.0,3970656.0,0.261,0.99875
230,18WPBCN2-12345-4,PBCN2,Fossil Gas,Spain,41.338,2.16,1555111000.0,4242614.0,0.28075,0.99875
231,18WPGR1-12345-04,P.G.RODR 1,Fossil Hard Coal,Spain,43.452,-7.851,8010680000.0,8214599.0,0.66825,0.99925
232,18WPGR2-12345-0V,P.G.RODR 2,Fossil Hard Coal,Spain,43.452,-7.851,7173610000.0,7788939.0,0.633,1.0
233,18WPGR3-12345-0L,P.G.RODR 3,Fossil Hard Coal,Spain,43.452,-7.851,6781470000.0,7363148.0,0.6005,0.99875
234,18WPGR4-12345-0B,P.G.RODR 4,Fossil Hard Coal,Spain,43.452,-7.851,7362830000.0,7994389.0,0.6507499999999999,0.99875
235,18WPGR5-123456-J,P.G.RODR 5,Fossil Gas,Spain,43.452,-7.851,1090394700.0,2887600.0,0.09599999999999999,0.9990833333333334
237,18WPNN3-12345-0I,PUENTENUEV,Fossil Hard Coal,Spain,38.113,-4.933,4745908000.0,4580447.0,0.43624999999999997,0.99925
238,18WPVENT1--1234A,PVENT1,Fossil Gas,Spain,40.96,0.865,378649940.0,1033025.0,0.07,0.99925
239,18WPVENT2--12342,PVENT2,Fossil Gas,Spain,40.96,0.865,418394200.0,1141451.0,0.07875,0.99925
240,18WROB1-12345-0L,ROBLA 1,Fossil Hard Coal,Spain,42.804,-5.627,1729450000.0,1669152.0,0.1805,0.99925
241,18WROB2-12345-0B,ROBLA 2,Fossil Hard Coal,Spain,42.804,-5.627,4795171000.0,4772619.0,0.3835,0.99925
242,18WSAGU1-123--0J,SAGU1,Fossil Gas,Spain,39.678,-0.28,1547723000.0,4145686.0,0.28875,0.99875
243,18WSAGU2-123--0A,SAGU2,Fossil Gas,Spain,39.678,-0.28,1733531000.0,4643386.0,0.322,0.99925
244,18WSAGU3-123--01,SAGU3,Fossil Gas,Spain,39.678,-0.28,1244710000.0,3334044.0,0.23149999999999998,0.99925
245,18WSBO3-12345-01,SABON 3,Fossil Gas,Spain,43.316,-8.478,282222600.0,727956.0,0.05325,0.99875
246,18WSRI2-12345-0X,SOTORIBE 2,Fossil Hard Coal,Spain,43.312,-5.873,861058000.0,934916.0,0.223,0.5735
247,18WSRI3-12345-0N,SOTORIBE 3,Fossil Hard Coal,Spain,43.312,-5.873,5005967000.0,5586341.0,0.4605,0.99925
248,18WSRI5-123456-L,SOTO5,Fossil Gas,Spain,43.312,-5.873,120902940.0,317850.0,0.021249999999999998,1.0
249,18WSROQ1-1234-06,SANROQUE1,Fossil Gas,Spain,36.2,-5.413,2253510000.0,5924405.0,0.434,0.99875
250,18WSROQ2-1234-0Y,SANROQUE2,Fossil Gas,Spain,36.2,-5.413,927953000.0,2439558.0,0.17325000000000002,0.99925
251,18WSTC4-12345-0I,SANTURCE 4,Fossil Gas,Spain,43.339,3.05,55453200.0,143034.0,0.01025,0.99925
252,18WTAPOWER-12-0V,TARRAG IB,Fossil Gas,Spain,41.106,1.172,609909300.0,1573179.0,0.1075,0.99925
253,18WTARRAG-123-03,TARRAG,Fossil Gas,Spain,41.106,1.172,26091716.842,67300.0,0.005,0.9059999999999999
254,18WTER1-12345-0D,TERUEL 1,Fossil Hard Coal,Spain,40.985,-0.452,5410360000.0,5221722.0,0.42300000000000004,0.99875
255,18WTER2-12345-03,TERUEL 2,Fossil Hard Coal,Spain,40.985,-0.452,5347910000.0,5161449.0,0.41825,0.99925
256,18WTER3-12345-0U,TERUEL 3,Fossil Hard Coal,Spain,40.985,-0.452,5233372000.0,5050899.0,0.41,0.99925
257,19W000000000005K,Adamów,Lignite,Poland,52.0,18.533,9852461000.0,7484398.0,0.4751333333333333,0.998
258,19W000000000016F,Bełchatów,Lignite,Poland,51.266,19.315,148569335000.0,128536565.0,0.6646923076923077,0.99725
259,19W0000000000369,Chorzów,Fossil Hard Coal,Poland,50.3,18.967,6288576000.0,5354965.0,0.6777500000000001,0.99725
260,19W000000000043C,Dolna Odra,Fossil Hard Coal,Poland,53.2,14.467,14819346000.0,17068480.0,0.35800000000000004,0.9972500000000001
261,19W0000000000636,Jaworzno 3,Fossil Hard Coal,Poland,50.2,19.2,19739040000.0,19126986.0,0.4068333333333334,0.997125
262,19W0000000000741,Karolin 2,Fossil Hard Coal,Poland,52.436,16.989,2805288000.0,2306438.0,0.434,0.8711428571428571
263,19W000000000076Y,Katowice,Fossil Hard Coal,Poland,50.533,19.05,3315733000.0,3212921.0,0.68675,0.98825
264,19W0000000000806,Kraków Łęg,Fossil Hard Coal,Poland,50.05,20.0,7403251000.0,6245843.0,0.404375,0.989625
265,19W000000000095U,Kozienice 1,Fossil Hard Coal,Poland,51.65,21.467,32275582000.0,33170221.0,0.5209374999999999,0.99725
266,19W000000000104I,Kozienice 2,Fossil Hard Coal,Poland,51.65,21.467,18832635200.0,20857386.0,0.36819999999999997,0.974
267,19W000000000107C,EC Łódź-4,Fossil Hard Coal,Poland,51.746,19.538,1974557000.0,1565452.0,0.45025,0.9904999999999999
268,19W0000000001098,EC Wrotków,Fossil Gas,Poland,51.216,22.558,1970622000.0,4098144.0,0.51,0.9915
269,19W000000000111L,Łagisza,Fossil Hard Coal,Poland,50.35,19.133,9331700000.0,10264760.0,0.3353333333333333,0.9972500000000001
270,19W000000000116B,Łaziska 2,Fossil Hard Coal,Poland,50.134,18.846,2011194600.0,1771667.0,0.20249999999999999,0.99725
271,19W0000000001195,Łaziska 3,Fossil Hard Coal,Poland,50.134,18.846,12169050000.0,12506364.0,0.395,0.99725
272,19W0000000001292,Opole,Fossil Hard Coal,Poland,50.752,17.882,25081250000.0,27249402.0,0.50875,0.99725
273,19W0000000001349,Ostrołęka B,Fossil Hard Coal,Poland,53.104,21.612,9563501000.0,9828594.0,0.41333333333333333,0.9939166666666667
274,19W000000000142A,Pątnów 1,Lignite,Poland,52.305,18.232,19398304800.0,15718276.0,0.3575,0.9972500000000001
275,19W000000000149X,Pątnów 2,Lignite,Poland,52.305,18.232,9489030000.0,8890264.0,0.5365,0.99725
276,19W0000000001519,Połaniec,Fossil Hard Coal,Poland,50.433,21.333,34201387000.0,33140880.0,0.5684642857142858,0.99725
277,19W000000000165Z,Połaniec 2-Pasywna,Biomass,Poland,50.433,21.333,6932190000.0,5622221.0,0.71475,0.99725
278,19W000000000169R,EC Rzeszów,Fossil Gas,Poland,50.067,22.067,752740000.0,1826316.0,0.51725,0.99725
279,19W0000000001713,Rybnik,Fossil Hard Coal,Poland,50.133,18.517,24535094000.0,26652524.0,0.42590625,0.99721875
280,19W000000000186R,Skawina,Fossil Hard Coal,Poland,49.967,19.8,5973411000.0,5086590.0,0.4068461538461538,0.9626923076923077
281,19W000000000193U,Stalowa Wola 3,Fossil Hard Coal,Poland,50.55,22.067,1874732900.0,1447907.0,0.165875,0.996875
282,19W000000000199I,Turów,Lignite,Poland,50.949,14.913,29125445000.0,28025101.0,0.53525,0.997125
283,19W000000000213D,Wrocław,Fossil Hard Coal,Poland,51.117,17.017,3289464000.0,2704516.0,0.3605,0.9901249999999999
284,19W0000000002191,EC Siekierki,Fossil Hard Coal,Poland,52.183,21.083,9880380000.0,7833282.0,0.520375,0.9881875
285,19W000000000230D,Zielona Góra,Fossil Gas,Poland,51.95,15.483,1453723000.0,3311116.0,0.75725,0.99725
286,19W0000000002361,Siersza,Fossil Hard Coal,Poland,50.2,19.45,6819715000.0,5986973.0,0.29481250000000003,0.99725
287,19W000000000256W,EC Włocławek,Fossil Gas,Poland,52.706,18.965,1894681000.0,5159807.0,0.30425,0.78975
288,19W000000000283T,Płock,Fossil Gas,Poland,52.588,19.678,1156456800.0,3149388.0,0.3005,0.792
290,22WAMERCO000010Y,Amercoeur 1 R TGV,Fossil Gas,Belgium,50.433,4.4,3502007000.0,9518288.0,0.6131249999999999,0.993375
291,22WDROGEN0000863,DROGENBOS TGV,Fossil Gas,Belgium,50.804,4.298,970899500.0,2319122.0,0.14591666666666667,0.9724166666666667
292,22WESCH-S0000967,ESCH-SUR-ALZETTE STEG,Fossil Gas,Belgium,49.511,5.964,221553000.0,573309.0,0.235,0.741
293,22WHERDER0001288,HERDERSBRUG STEG,Fossil Gas,Belgium,51.257,3.208,1773469000.0,4236166.0,0.2549166666666667,0.9890833333333333
294,22WINESCO000149P,INESCO WKK,Fossil Gas,Belgium,51.027,3.578,1165648000.0,2900314.0,0.62375,0.99725
295,22WLANGER0001694,LANGERLO 1,Fossil Hard Coal,Belgium,50.934,5.478,1252732000.0,1287453.0,0.21066666666666664,0.8586666666666667
296,22WLANGER000171H,LANGERLO 2,Fossil Hard Coal,Belgium,50.934,5.478,1070218000.0,1099883.0,0.18033333333333335,0.8586666666666667
297,22WMARCIN000179H,Marcinelle Energie (Carsid),Fossil Gas,Belgium,50.41,4.433,1829236000.0,4915540.0,0.34775,0.99375
298,22WRINGVA000209C,RINGVAART STEG,Fossil Gas,Belgium,51.099,3.712,2662298000.0,6889184.0,0.5429999999999999,0.98975
299,22WRODENH000213L,RODENHUIZE 4,Biomass,Belgium,51.127,3.769,6800790000.0,6032731.0,0.6455,0.9944999999999999
300,22WSAINT-000221B,SAINT-GHISLAIN STEG,Fossil Gas,Belgium,50.466,3.833,1931945000.0,4999260.0,0.41125,0.9904999999999999
301,22WSCHELD0002261,Scheldelaan Exxonmobil,Fossil Gas,Belgium,51.254,4.334,2028659000.0,3432383.0,0.7035,0.9944999999999999
302,22WT-POWE000244W,T-power Beringen,Fossil Gas,Belgium,51.058,5.105,4239573000.0,9704825.0,0.661,0.99725
303,22WZANDVL000255D,Zandvliet Power,Fossil Gas,Belgium,51.361,4.255,2934667000.0,7886065.0,0.5862499999999999,0.994
304,22WZELZAT0002618,Zelzate 2 Knippegroen,Fossil Gas,Belgium,51.157,3.812,2815486000.0,7705906.0,0.7825,0.89525
305,24WV--ENO------B,Nováky,Lignite,Slovakia,48.694,18.532,5667548358.0,4085415.0,0.3962142857142857,0.7527142857142858
306,24WV--EVO------D,Vojany,Fossil Hard Coal,Slovakia,48.553,21.973,2266608500.0,1878477.0,0.323375,0.753
307,24WV--PBA------A,PPC Investments,Fossil Gas,Slovakia,48.17,17.159,1385171.0,2625.0,0.0005,0.7242500000000001
308,26WIMPI-0066050X,TORINO NORD,Fossil Gas,Italy,45.072,7.679,3082945000.0,8113014.0,0.5875,0.99725
309,26WIMPI-0300653B,CCGT APRILIA,Fossil Gas,Italy,41.58,12.657,2347635000.0,5949170.0,0.21625,0.99725
312,26WIMPI-S01CHVSE,CHIVASSO,Waste,Italy,45.183,7.883,1851368000.0,4691576.0,0.178,0.99725
313,26WIMPI-S01ECLF6,E.ON C.TE LIVORNO FERRARIS,Fossil Gas,Italy,45.237,8.193,5008985000.0,13181524.0,0.46875,0.99725
314,26WIMPI-S01LNEIG,LEINI,Fossil Gas,Italy,45.162,7.751,3104717000.0,8170308.0,0.615,0.99725
315,26WIMPI-S01MNCLB,MONCALIERI,Fossil Gas,Italy,44.995,7.676,4597152000.0,12097769.0,0.443,0.99725
317,26WIMPI-S03ACMNW,CASSANO,Fossil Gas,Italy,45.512,9.51,1662174000.0,4212138.0,0.16125,0.9964999999999999
318,26WIMPI-S03ACMSM,CTE DEL MINCIO,Fossil Gas,Italy,45.399,10.715,929252000.0,2354829.0,0.1685,0.99725
319,26WIMPI-S03CDTL1,CENTRALE DI TURANO LODIGIANO - BERTONICO (LO),Fossil Gas,Italy,45.205,9.674,2163934000.0,5589108.0,0.19974999999999998,0.9964999999999999
320,26WIMPI-S03EMC43,ENIPOWER MANTOVA,Fossil Gas,Italy,45.167,10.8,5397046000.0,14202753.0,0.541625,0.996875
321,26WIMPI-S03FERRD,ENIPOWER FERRERA ERBOGNONE,Fossil Gas,Italy,45.099,8.868,7178282000.0,18706251.0,0.5428333333333334,0.997
322,26WIMPI-S03OSTG2,OSTIGLIA,Fossil Gas,Italy,45.053,11.139,2609646000.0,6475045.0,0.26866666666666666,0.9191666666666668
323,26WIMPI-S03SMLPC,CENTRALE DI MALPENSA,Fossil Gas,Italy,45.62,8.74,14022600.0,30068.0,0.088,0.49
324,26WIMPI-S03SRMDD,SERMIDE,Fossil Gas,Italy,44.983,11.269,1675670030.0,4246337.0,0.10185714285714287,0.8511428571428572
325,26WIMPI-S03TRBGZ,TURBIGO,Fossil Gas,Italy,45.527,8.728,2274263000.0,5984902.0,0.107,0.996875
326,26WIMPI-S03TVZZK,TAVAZZANO,Fossil Gas,Italy,45.335,9.428,4167421000.0,10560709.0,0.24225000000000002,0.996875
327,26WIMPI-S03VEGHN,VOGHERA,Fossil Gas,Italy,45.029,8.973,2994831000.0,7881135.0,0.59125,0.99725
328,26WIMPI-S05AZTT6,AZOTATI,Fossil Gas,Italy,45.462,12.238,327252800.0,877139.0,0.1065,0.99725
329,26WIMPI-S05FTSNK,FUSINA T.,Fossil Hard Coal,Italy,45.431,12.246,19431419000.0,17880862.0,0.5755,0.9970625
330,26WIMPI-S05PMAR7,LEVANTE,Fossil Gas,Italy,45.446,12.255,3257395000.0,8305811.0,0.309875,0.996875
331,26WIMPI-S06ECLTM,CET SERVOLA,Fossil Gas,Italy,45.651,13.767,39625000.0,90759.0,0.1225,0.9165
332,26WIMPI-S06MTNFA,MONFALCONE,Fossil Hard Coal,Italy,45.797,13.546,7993748000.0,8258973.0,0.750125,0.99725
333,26WIMPI-S06SDDT9,DUINO,Fossil Gas,Italy,45.793,13.583,231737800.0,474317.0,0.11325,0.99725
334,26WIMPI-S06TRVC2,TORVISCOSA,Fossil Gas,Italy,45.817,13.29,5451767000.0,13815394.0,0.47550000000000003,0.99725
335,26WIMPI-S07GTNV2,GENOVA T.,Fossil Hard Coal,Italy,44.404,8.903,1243071000.0,990758.0,0.27899999999999997,0.7879999999999999
336,26WIMPI-S07SCPZX,SPEZIA CENTR,Fossil Hard Coal,Italy,44.111,9.872,7886160000.0,9311790.0,0.513,0.996
337,26WIMPI-S07VTDR2,VADO TERM.,Fossil Gas,Italy,44.277,8.431,3395804000.0,8936330.0,0.336,0.99725
339,26WIMPI-S08EFNP0,S.E.F. SRL,Fossil Gas,Italy,44.85,11.583,5112983000.0,13455219.0,0.549625,0.99725
340,26WIMPI-S08ERNPQ,ENIPOWER RAVENNA,Fossil Gas,Italy,44.449,12.237,5757977300.0,15060154.0,0.3998333333333333,0.997
341,26WIMPI-S08LCCS4,LA CASELLA C.LE,Fossil Gas,Italy,45.09,9.479,2631781100.0,6925737.0,0.148625,0.9055
342,26WIMPI-S08PCRTB,PORTO CORSINI,Fossil Gas,Italy,44.484,12.266,1174374700.0,3090460.0,0.11875,0.99725
343,26WIMPI-S08PLCNW,PIACENZA,Fossil Gas,Italy,45.05,9.7,1983259000.0,5219101.0,0.18525,0.99725
345,26WIMPI-S09CPLR3,PORCARI,Fossil Gas,Italy,43.823,10.602,623773000.0,1611108.0,0.45175,0.99725
346,26WIMPI-S09RSLCK,ROSELECTRA,Fossil Gas,Italy,43.367,10.45,2536708000.0,6675548.0,0.50225,0.99725
347,26WIMPI-S09RSNOR,ROSEN,Fossil Gas,Italy,43.367,10.45,2905103000.0,7786583.0,0.68525,0.99725
348,26WIMPI-S09SBRBU,S.BARBARA,Fossil Gas,Italy,43.563,11.478,1560081600.0,4105480.0,0.3,0.99725
349,26WIMPI-S10PTRFC,PIETRAFITTA,Fossil Gas,Italy,42.993,12.2,218760660.0,575685.0,0.04475,0.99725
350,26WIMPI-S11ACPNS,API ENERGIA IGCC,Fossil Gas,Italy,43.622,13.374,468922240.0,1096895.0,0.21275000000000002,0.70625
352,26WIMPI-S12MCNTU,MONTALTO C.LE,Fossil Gas,Italy,42.364,11.542,2032070.387,4739.0,6.25e-05,0.996875
353,26WIMPI-S12TRRLD,TORREVAL.NORD,Fossil Hard Coal,Italy,42.128,11.758,38735210000.0,43450772.0,0.6739166666666666,0.997
354,26WIMPI-S12TRRVU,TORREVALDALIGA,Fossil Gas,Italy,42.121,11.768,2752560900.0,6975301.0,0.10416666666666667,0.9972500000000001
355,26WIMPI-S13BSSUZ,BUSSI,Fossil Gas,Italy,42.2,13.84,140235500.0,375875.0,0.088,0.99725
356,26WIMPI-S13CDGNT,GISSI,Fossil Gas,Italy,42.05,14.563,1516297900.0,3916367.0,0.13325,0.99725
357,26WIMPI-S14TERME,ENERGIA MOLISE,Fossil Gas,Italy,41.937,15.001,1701360000.0,4311440.0,0.16025,0.99725
358,26WIMPI-S15NLPLI,NAPOLI L,Fossil Gas,Italy,40.834,14.301,1637212000.0,4388238.0,0.3135,0.99725
359,26WIMPI-S15SCPRH,SPARANISE,Fossil Gas,Italy,41.176,14.101,3547354000.0,9335146.0,0.3395,0.99725
360,26WIMPI-S15SGTL1,POMIGLIANO DARCO,Fossil Gas,Italy,40.934,14.39,2937067.0,7586.0,0.002,0.99725
361,26WIMPI-S15STTV3,CENTRALE DI TEVEROLA,Fossil Gas,Italy,41.009,14.23,1867313000.0,4731980.0,0.33475,0.99725
362,26WIMPI-S16BSCRY,BRINDISI SUD CE,Fossil Hard Coal,Italy,40.643,17.981,33013080000.0,33133918.0,0.3919375,0.9970625
363,26WIMPI-S16CDMNU,SORGENIA PUGLIA CENTRALE DI MODUGNO,Fossil Gas,Italy,41.085,16.786,1569396000.0,4053508.0,0.14325,0.9964999999999999
364,26WIMPI-S16CNDLL,CANDELA,Fossil Gas,Italy,41.202,15.476,3021190000.0,7656042.0,0.5465,0.9964999999999999
365,26WIMPI-S16CSSCB,RATINO,Fossil Gas,Italy,41.658,15.424,2538879000.0,6557532.0,0.44525000000000003,0.99725
366,26WIMPI-S16EBNPL,ENIPOWER BRINDISI,Fossil Gas,Italy,40.643,17.981,8076694346.15,21251976.0,0.42325,0.9970625
367,26WIMPI-S18EADS0,ALTOMONTE,Fossil Gas,Italy,39.711,16.215,5192100000.0,13157367.0,0.46549999999999997,0.99725
368,26WIMPI-S18RCZZW,RIZZICONI,Fossil Gas,Italy,38.433,15.981,4542637000.0,11954306.0,0.4455,0.99725
369,26WIMPI-S18RTSN9,ROSSANO TE,Fossil Gas,Italy,39.619,16.603,4768481.35,7901.0,0.000875,0.99725
370,26WIMPI-S18SCMR8,SIMERI CRICHI,Fossil Gas,Italy,38.876,16.657,5322270000.0,13487229.0,0.43574999999999997,0.99725
371,26WIMPI-S18SCNDX,CENTRALE DI SCANDALE,Fossil Gas,Italy,39.102,17.116,2727398500.0,7044448.0,0.24475,0.99725
373,26WIMPI-S19APGPP,CTE NUCE NORD,Fossil Gas,Italy,37.179,15.182,3473410000.0,8265405.0,0.5523333333333333,0.7733333333333333
374,26WIMPI-S19EPRGR,IMPSUD,Fossil Gas,Italy,37.129,15.202,179364800.0,428308.0,0.22849999999999998,0.86975
375,26WIMPI-S19IESBL,ISAB ENERGY,Fossil Gas,Italy,37.129,15.202,5550565000.0,10278825.0,0.57225,0.93225
376,26WIMPI-S19PCRLE,PRIOLO C.LE,Fossil Gas,Italy,37.139,15.216,2798634000.0,7364827.0,0.28325,0.99725
377,26WIMPI-S19SDMCS,SAN FILIPPO DEL MELA,Fossil Oil,Italy,38.2,15.267,5045398900.0,5425162.0,0.1835625,0.9970625
378,26WIMPI-S19TCRMT,TERMINI IMERESE C.LE,Fossil Gas,Italy,37.969,13.748,3334647090.0,8411868.0,0.1050625,0.99725
379,26WIMPI-S19TCRPN,TRAPANI C.LE,Fossil Gas,Italy,38.0,12.567,288593910.0,478177.0,0.06475,0.996875
380,26WIMPI-S19TMRC9,MILAZZO,Fossil Gas,Italy,38.197,15.267,1644964000.0,3687543.0,0.69375,0.99725
381,26WIMPI-S20EONCO,AES OTTANA ENERGIA S.R.L,Fossil Oil,Italy,40.25,9.033,49348925.0,63676.0,0.023,0.8705
382,26WIMPI-S20FOMSR,FIUMESANTO,Fossil Hard Coal,Italy,40.852,8.299,11826270000.0,11520436.0,0.6172500000000001,0.996875
383,26WIMPI-S20SCLC8,SULCIS CENTR,Fossil Hard Coal,Italy,39.195,8.4,3936128000.0,3950536.0,0.253625,0.99725
384,26WIMPI-S20SRLXH,SARLUX,Fossil Gas,Italy,39.078,9.019,7802670000.0,17491375.0,0.794,0.99725
385,26WIMZI-S01BVRG0,VERZUOLO,Fossil Gas,Italy,44.594,7.485,203223600.0,425859.0,0.087,0.99725
396,28W-G-000000080M,TEŠ,Lignite,Slovenia,46.372,15.053,15899169000.0,15378007.0,0.35791666666666666,0.9369166666666667
397,28W-G-000000122W,TEB,Fossil Gas,Slovenia,45.998,15.48,11362635.0,18835.0,0.002375,0.9782500000000001
398,29WAISAGDIMI-I-M,AG_DIMITRIOS1,Lignite,Greece,40.393,21.921,5675100000.0,3902022.0,0.4125,0.985
399,29WAISAGDIMI-IIL,AG_DIMITRIOS2,Lignite,Greece,40.393,21.921,7104310000.0,4884705.0,0.51625,0.985
400,29WAISAGDIMI-IVW,AG_DIMITRIOS4,Lignite,Greece,40.393,21.921,6112568000.0,4202807.0,0.4295,0.985
401,29WAISAGDIMI-V-K,AG_DIMITRIOS5,Lignite,Greece,40.393,21.921,10646480000.0,7320180.0,0.619,0.985
402,29WAISAGDIMIIIIJ,AG_DIMITRIOS3,Lignite,Greece,40.393,21.921,7449437000.0,5122001.0,0.5255,0.985
406,29WAISALIVERI-45,ALIVERI4,Fossil Oil,Greece,38.39,24.052,36184.58,50.0,0.0,0.835
407,29WAISALIVERI-53,ALIVERI5,Fossil Gas,Greece,38.39,24.052,2922050000.0,7723350.0,0.5355,0.985
408,29WAISAMYNT-I--L,AMYNDEO1,Lignite,Greece,40.62,21.686,5463830000.0,3631530.0,0.3855,0.985
409,29WAISAMYNT-II-1,AMYNDEO2,Lignite,Greece,40.62,21.686,5615356000.0,3732241.0,0.396,0.985
410,29WAISKARDIAI--I,KARDIA1,Lignite,Greece,40.411,21.786,6464700000.0,4000433.0,0.42625,0.985
411,29WAISKARDIAII-Z,KARDIA2,Lignite,Greece,40.411,21.786,6550530000.0,4053548.0,0.43325,0.985
412,29WAISKARDIAIIIY,KARDIA3,Lignite,Greece,40.411,21.786,7199060000.0,4619860.0,0.47775,0.985
413,29WAISKARDIAIV-X,KARDIA4,Lignite,Greece,40.411,21.786,6403102000.0,4109066.0,0.42500000000000004,0.985
414,29WAISKOMOTIN-IO,KOMOTINI,Fossil Gas,Greece,41.064,25.49,2216077000.0,5304792.0,0.3225,0.985
417,29WAISLAVRIO-IVM,LAVRIO4,Fossil Gas,Greece,37.747,24.068,1535166000.0,3521725.0,0.18575,0.985
418,29WAISLAVRIO-V-A,LAVRIO5,Fossil Gas,Greece,37.747,24.068,953117700.0,2471681.0,0.18925,0.985
420,29WAISMEGAL-IIID,MEGALOPOLI3,Lignite,Greece,37.418,22.108,7205270000.0,5449533.0,0.6185,0.985
421,29WAISMEGAL-IV-C,MEGALOPOLI4,Lignite,Greece,37.416,22.067,6501810000.0,4917480.0,0.556,0.98575
422,29WAISMEGAL-V--J,MEGALOPOLI_V,Lignite,Greece,37.418,22.108,1790491000.0,4911081.0,0.1805,0.907
423,29WAISMELITII--H,MELITI,Lignite,Greece,40.814,21.598,6990800000.0,5928203.0,0.5935,0.985
427,29WALOUMINIO---B,ALOUMINIO,Fossil Gas,Greece,38.357,22.689,2016043000.0,4624874.0,0.4005,0.98575
428,29WELPEDISONTHIM,ELPEDISON_THISVI,Fossil Gas,Greece,38.239,22.95,1582911000.0,4262780.0,0.30125,0.985
429,29WENERGEIAKITHP,ELPEDISON_THESS,Fossil Gas,Greece,40.687,22.885,1694517000.0,4394317.0,0.31825,0.985
430,29WHERON-CC----5,HERON_CC,Fossil Gas,Greece,38.28,23.327,1583836000.0,4344256.0,0.29825,0.98425
431,29WHERONTHE---ID,HERON1,Fossil Gas,Greece,38.28,23.327,6538102.0,11412.0,0.01833333333333333,0.7356666666666666
432,29WHERONTHE--IIU,HERON2,Fossil Gas,Greece,38.28,23.327,4984348.0,8700.0,0.015666666666666666,0.7356666666666666
433,29WHERONTHE-IIIS,HERON3,Fossil Gas,Greece,38.28,23.327,5585910.0,9750.0,0.016666666666666666,0.7356666666666666
434,29WKORINTHOSPWR6,KORINTHOS_POWER,Fossil Gas,Greece,37.924,23.072,2230600000.0,5784521.0,0.3865,0.985
435,29WPROTERGIACC-4,PROTERGIA_CC,Fossil Gas,Greece,38.357,22.689,2075338000.0,5692378.0,0.38125000000000003,0.985
438,30W-CET-BRAZ---Q,TPP Brazi,Fossil Gas,Romania,44.864,26.019,680641328.9,1044755.0,0.155,0.9828749999999999
439,30W-CET-BUCS---S,TPP Bucuresti Sud,Fossil Gas,Romania,44.406,26.156,1887680120.0,2906380.0,0.2490625,0.98275
440,30W-CET-BUCV---D,TPP Bucuresti Vest,Fossil Gas,Romania,44.423,25.979,1743419100.0,3896165.0,0.31262500000000004,0.982625
441,30W-CET-CRAI---T,TPP Craiova,Lignite,Romania,44.347,23.815,5092073000.0,3707266.0,0.410625,0.9824999999999999
442,30W-CET-GALA---G,TPP Galati,Fossil Gas,Romania,45.435,27.982,405219080.0,461479.0,0.04650000000000001,0.9828333333333333
443,30W-CET-IERN---J,TPP Iernut,Fossil Gas,Romania,46.468,24.186,3598547800.0,5901730.0,0.19333333333333336,0.9827083333333334
444,30W-CET-ISAL---X,TPP Isalnita,Lignite,Romania,44.386,23.717,9196766000.0,8755888.0,0.427125,0.983
445,30W-CET-MINT---R,TPP Mintia,Fossil Hard Coal,Romania,45.916,22.828,3383332900.0,3158070.0,0.0864,0.98295
446,30W-CET-PARO---N,TPP Paroseni,Fossil Hard Coal,Romania,45.365,23.262,1819480000.0,1581113.0,0.308,0.98275
447,30W-CET-PETROM-L,TPP CCCC Petrom Brazi,Fossil Gas,Romania,44.864,26.019,4250199000.0,11574608.0,0.37875000000000003,0.98325
448,30W-CET-ROVI---Q,TPP Rovinari,Lignite,Romania,44.913,23.134,22393305000.0,22374468.0,0.5198125,0.982625
449,30W-CET-TURC---M,TPP Turceni,Lignite,Romania,44.665,23.41,17154335700.0,16812333.0,0.257125,0.9828749999999999
450,32W001100100063E,TPP_MI3,Lignite,Bulgaria,42.145,26.003,19144091000.0,17297690.0,0.5738125,0.9435625
451,32W001100100088Z,TEC_MARITSA_3_AD,Lignite,Bulgaria,42.052,25.623,144423600.0,100667.0,0.025249999999999998,0.94425
452,32W001100100089X,TOPLO_RUSE,Fossil Hard Coal,Bulgaria,43.866,26.009,11126700.0,8775.0,0.00225,0.94325
453,32W001100100153D,TPP_MI_2,Lignite,Bulgaria,42.256,26.132,39846845000.0,33218994.0,0.62203125,0.94425
454,32W001100100218B,TEC_BOBOVDOL_EAD,Lignite,Bulgaria,42.285,23.034,10082679000.0,8329348.0,0.441,0.9443333333333334
455,32W001100100294W,AES_MI1,Lignite,Bulgaria,42.159,25.909,15391755000.0,10331102.0,0.575125,0.729125
462,38W-KTJ-AUVERE-Z,Auvere kondensatsioonielektrijaam,Fossil Oil,Estonia,59.273,27.896,4398330000.0,4305761.0,0.55525,0.7905
463,38W-MT--BEJ----R,Balti Eleketrijaam,Fossil Oil,Estonia,59.353,28.126,5076341020.0,5628004.0,0.2215625,0.98925
464,38W-MT--EEJ----3,Eesti Elektrijaam,Fossil Oil,Estonia,59.274,27.901,30625707000.0,27170381.0,0.5669062500000001,0.99165625
468,43W-RTEC-2-1---C,RTEC2-1,Fossil Gas,Latvia,56.916,24.274,830709800.0,1998101.0,0.1335,0.98375
469,43W-RTEC-2-2---7,RTEC2-2,Fossil Gas,Latvia,56.916,24.274,1597121000.0,3859264.0,0.257875,0.98375
472,44W-T-KT-000001I,Forssa,Fossil Oil,Finland,62.211,27.672,13141163.0,16035.0,0.001375,0.98625
473,44W-T-LV-000001R,Inkoo,Fossil Hard Coal,Finland,60.02,23.912,11044067.2,10477.0,0.0008333333333333334,0.9846666666666666
474,44W-T-LV-000002P,Kristiina,Fossil Hard Coal,Finland,62.256,21.325,132076249.0,129210.0,0.007875,0.99575
475,44W-T-LV-000003N,Meri-Pori,Fossil Hard Coal,Finland,61.632,21.405,2762981000.0,2948755.0,0.14925,0.99575
476,44W-T-LV-000004L,Tahkoluoto,Fossil Hard Coal,Finland,61.488,21.817,136440000.0,129434.0,0.0155,0.99575
478,44W-T-YT-000001Q,Hanasaari,Fossil Hard Coal,Finland,60.183,24.973,5832455000.0,4668457.0,0.638625,0.991
481,44W-T-YT-000004K,Kymijärvi,Fossil Hard Coal,Finland,60.991,25.721,1610313000.0,1527631.0,0.25725,0.99575
482,44W-T-YT-000006G,Naantali,Fossil Hard Coal,Finland,60.458,22.052,4223678784.0,3380746.0,0.28607692307692306,0.9670769230769231
483,44W-T-YT-000008C,Salmisaari,Fossil Hard Coal,Finland,60.165,24.904,3465065000.0,3389872.0,0.62575,0.99575
487,44W-T-YT-000012L,Vaskiluoto,Fossil Hard Coal,Finland,63.091,21.554,3849489000.0,3765958.0,0.241875,0.99575
490,45W000000000009O,Kyndbyvaerket,Fossil Oil,Denmark,55.807,11.882,52402490.0,43255.0,0.002375,1.0
491,45W0000000000102,Avedoerevaerket,Fossil Gas,Denmark,55.603,12.48,1612851000.0,2674710.0,0.305,1.0
492,45W0000000000102,Avedoerevaerket,Waste,Denmark,55.603,12.48,5046190000.0,5661031.0,0.28575,1.0
493,45W0000000000110,Skaerbaekvaerket,Fossil Gas,Denmark,55.512,9.616,1040781700.0,1573711.0,0.1145,1.0
494,45W000000000012Z,Asnaesvaerket,Fossil Hard Coal,Denmark,55.662,11.082,3453959000.0,2926357.0,0.166625,1.0
495,45W000000000013X,Amagervaerket,Fossil Hard Coal,Denmark,55.686,12.626,4095298000.0,3985159.0,0.45475,1.0
496,45W000000000014V,Fynsvaerket,Fossil Hard Coal,Denmark,55.429,10.404,3858284000.0,3868290.0,0.2965,1.0
497,45W000000000015T,Studstrupvaerket,Fossil Hard Coal,Denmark,56.251,10.344,6514562000.0,6531466.0,0.25975,1.0
498,45W000000000016R,Nordjyllandsvaerket,Fossil Hard Coal,Denmark,57.074,10.042,5463980000.0,5800403.0,0.43525,1.0
499,45W000000000017P,Esbjergvaerket,Fossil Hard Coal,Denmark,55.455,8.458,3966130000.0,4327282.0,0.32725,1.0
501,45W000000000025Q,Enstedvaerket,Fossil Hard Coal,Denmark,55.02,9.446,321679.43,332.0,0.0,0.8796666666666667
502,45W000000000112V,Silkeborgvaerket,Fossil Gas,Denmark,56.201,9.558,304496900.0,787159.0,0.20775,1.0
503,46WPU00000000024,Gasturbiner Halmstad,Fossil Oil,Sweden,56.661,12.869,2406759.0,2983.0,0.00075,0.9665
504,46WPU00000000040,Öresundsverket CHP,Fossil Gas,Sweden,55.626,13.04,490507400.0,1112122.0,0.10049999999999999,0.9553333333333334
505,46WPU0000000005Z,Karlshamn,Fossil Oil,Sweden,56.153,14.836,28683729.0,36908.0,0.0015,0.9664999999999999
506,46WPU0000000023X,Värtaverket,Fossil Oil,Sweden,59.353,18.101,2421512320.0,2030284.0,0.16736363636363635,0.9506363636363637
508,46WPU0000000056I,Stenungsund B3,Fossil Oil,Sweden,58.089,11.845,7259570.0,9527.0,0.00125,0.9665
509,46WPU0000000057G,Stenungsund B4,Fossil Oil,Sweden,58.089,11.845,24062440.0,31578.0,0.004,0.9665
510,46WPU0000000062N,Rya KVV,Fossil Gas,Sweden,57.729,12.929,506433520.0,1235300.0,0.16675,0.767
512,47W000000000153O,Ballylumford B Station,Fossil Oil,United Kingdom,54.845,-5.786,493685554.0,809185.0,0.03820833333333334,0.7855416666666666
513,47W000000000154M,Ballylumford C Station,Fossil Gas,United Kingdom,54.845,-5.786,1026515600.0,2596748.0,0.159375,0.9465
514,47W000000000155K,Coolkeeragh,Fossil Gas,United Kingdom,55.044,-7.245,1843569734.9,4658175.0,0.167375,0.851125
515,47W000000000156I,Kilroot,Fossil Oil,United Kingdom,54.726,-5.765,2525764037.67,3203762.0,0.06854166666666667,0.8187083333333334
519,47W000000000160R,Great Island Prod,Fossil Oil,Ireland,52.281,-6.991,948598320.0,1869480.0,0.274,0.5700000000000001
521,47W000000000162N,Tarbert Production,Fossil Oil,Ireland,52.588,-9.364,59352200.0,78095.0,0.004583333333333333,0.615
536,47W000000000243N,iPower Solutions Limited,Fossil Oil,Ireland,54.611,-5.906,1449320.0,1907.0,0.00075,0.755
537,48WSTN00000BAGE8,BAGE,Fossil Gas,United Kingdom,51.615,-3.828,1890518434.0,5148368.0,0.627875,0.19675
538,48WSTN00000BRGGA,BRGG,Fossil Gas,United Kingdom,53.541,-0.507,25147160.0,52604.0,0.21575,0.028999999999999998
539,48WSTN00000BRYPC,BRYP,Fossil Gas,United Kingdom,51.409,-3.229,19077227.0,44547.0,0.5,0.01075
540,48WSTN00000CARRI,CARR,Fossil Gas,United Kingdom,53.436,-2.408,3991159000.0,10290496.0,0.7705000000000001,0.5551666666666667
541,48WSTN00000CDCLQ,CDCL,Fossil Gas,United Kingdom,53.308,-0.775,2452096000.0,6441585.0,0.7425,0.5335
542,48WSTN00000CORBV,CORB,Fossil Gas,United Kingdom,52.51,-0.681,115734329.0,258989.0,0.36175,0.05275
543,48WSTN00000COSO2,COSO,Fossil Gas,United Kingdom,51.512,0.511,2730927000.0,7041214.0,0.52275,0.48124999999999996
544,48WSTN00000COWEA,COWE,Fossil Oil,United Kingdom,50.834,-1.377,10737292.0,13626.0,0.488,0.008
545,48WSTN00000DAMCL,DAMC,Fossil Gas,United Kingdom,51.414,0.56,5771970000.0,15162790.0,0.6815,0.79175
546,48WSTN00000DEEP3,DEEP,Fossil Gas,United Kingdom,53.214,-2.984,782315000.0,1826772.0,0.9922500000000001,0.21975
547,48WSTN00000EECLC,EECL,Fossil Gas,United Kingdom,51.661,-0.023,1309764000.0,3376991.0,0.67875,0.33225
548,48WSTN00000FAWNX,FAWN,Fossil Gas,United Kingdom,50.818,-1.329,1897629000.0,3138714.0,0.778,0.77475
549,48WSTN00000FELLH,FELL,Fossil Gas,United Kingdom,54.417,-3.489,396521800.0,829463.0,0.16675,0.7695
550,48WSTN00000FERRO,FERR,Fossil Hard Coal,United Kingdom,53.717,-1.282,2255841000.0,2447713.0,0.40499999999999997,0.1638
551,48WSTN00000FIDLP,FIDL,Fossil Hard Coal,United Kingdom,53.373,-2.688,8819002700.0,8686954.0,0.6834375,0.193
552,48WSTN00000GRMOP,GRMO,Fossil Gas,United Kingdom,56.01,-3.692,1950739000.0,3321455.0,0.8500000000000001,0.78325
553,48WSTN00000GYARR,GYAR,Fossil Gas,United Kingdom,52.585,1.732,2454681000.0,6209544.0,0.77225,0.54075
554,48WSTN00000HUMR2,HUMR,Fossil Gas,United Kingdom,53.637,-0.239,9713240000.0,24571329.0,0.62275,0.9139999999999999
555,48WSTN00000INDQH,INDQ,Fossil Gas,United Kingdom,50.396,-4.9,1918963.0,3174.0,0.41375,0.002
556,48WSTN00000KEAD4,KEAD,Fossil Gas,United Kingdom,53.594,-0.75,2378732300.0,6017420.0,0.609,0.34875
557,48WSTN00000LAGA3,LAGA,Fossil Gas,United Kingdom,50.388,-4.017,3196266000.0,8240998.0,0.56375,0.44
558,48WSTN00000LBARK,LBAR,Fossil Gas,United Kingdom,52.205,-0.267,5129065000.0,12475846.0,0.72,0.6657500000000001
559,48WSTN00000LOAND,LOAN,Fossil Hard Coal,United Kingdom,56.05,-3.681,6911368000.0,7391416.0,0.550625,0.339125
561,48WSTN00000MEDPZ,MEDP,Fossil Gas,United Kingdom,51.438,0.689,2669010000.0,6751730.0,0.6065,0.44275
562,48WSTN00000MRWDO,MRWD,Fossil Gas,United Kingdom,50.898,-1.438,6566067000.0,17248850.0,0.6855,0.77025
563,48WSTN00000PEHEU,PEHE,Fossil Gas,United Kingdom,57.478,-1.788,2977979300.0,7823066.0,0.38525,0.42874999999999996
564,48WSTN00000PEMBL,PEMB,Fossil Gas,United Kingdom,51.684,-5.0,17091462000.0,44067313.0,0.7694,0.7060500000000001
565,48WSTN00000PETEV,PETE,Fossil Gas,United Kingdom,52.577,-0.204,31099880.0,69595.0,0.29925,0.0155
566,48WSTN00000RATS9,RATS,Fossil Hard Coal,United Kingdom,52.862,-1.25,12180571000.0,11312588.0,0.6376875,0.2588125
567,48WSTN00000ROCKK,ROCK,Fossil Gas,United Kingdom,53.328,-2.757,3284817000.0,8469317.0,0.51575,0.51775
568,48WSTN00000SCCLO,SCCL,Fossil Gas,United Kingdom,53.737,-0.239,8674622000.0,22787980.0,0.7846666666666667,0.6774166666666667
569,48WSTN00000SEAB5,SEAB,Fossil Gas,United Kingdom,51.52,-2.65,5255295000.0,13805499.0,0.680625,0.3875
570,48WSTN00000SHBAT,SHBA,Fossil Gas,United Kingdom,53.602,-0.145,1790136000.0,4180116.0,0.526,0.28325
571,48WSTN00000SHOSS,SHOS,Fossil Gas,United Kingdom,50.83,-0.232,2628689000.0,6393960.0,0.69025,0.6265000000000001
572,48WSTN00000SPLNF,SPLN,Fossil Gas,United Kingdom,52.808,-0.132,4796432000.0,12133409.0,0.621,0.6102500000000001
573,48WSTN00000STAYA,STAY,Fossil Gas,United Kingdom,53.078,-0.865,11614305000.0,29945425.0,0.7366875,0.6396875
574,48WSTN00000SUTBW,SUTB,Fossil Gas,United Kingdom,52.757,0.192,2488196000.0,6294327.0,0.6165,0.3375
575,48WSTN00000SVRP6,SVRP,Fossil Gas,United Kingdom,51.547,-2.965,4109609000.0,10795821.0,0.673,0.506375
576,48WSTN00000USKMZ,USKM,Fossil Hard Coal,United Kingdom,51.547,-2.965,843681300.0,641096.0,0.449,0.1255
577,48WSTN0000ABTHBN,ABTHB,Fossil Hard Coal,United Kingdom,51.387,-3.407,17247153000.0,14561933.0,0.74925,0.3466666666666667
578,48WSTN0000CNQPSG,CNQPS,Fossil Gas,United Kingdom,53.227,-3.074,4320920000.0,10510117.0,0.66775,0.2925
579,48WSTN0000DIDCBC,DIDCB,Fossil Gas,United Kingdom,51.622,-1.261,7746500000.0,20349812.0,0.7285,0.520875
580,48WSTN0000DRAXXK,DRAXX,Biomass,United Kingdom,53.737,-0.997,49147070000.0,44480081.0,0.8759166666666666,0.7509166666666666
581,48WSTN0000DRAXXK,DRAXX,Fossil Hard Coal,United Kingdom,53.737,-0.997,28400910000.0,27975686.0,0.7914166666666667,0.5390833333333334
582,48WSTN0000EGGPS5,EGGPS,Fossil Hard Coal,United Kingdom,53.714,-1.125,6850967500.0,6941207.0,0.60375,0.166125
583,48WSTN0000GRAINU,GRAIN,Fossil Gas,United Kingdom,51.444,0.713,7423783000.0,19140908.0,0.7320833333333333,0.5394166666666667
584,48WSTN0000IRNPS9,IRNPS,Fossil Hard Coal,United Kingdom,52.63,-2.513,1358740000.0,1223675.0,0.466,0.6
585,48WSTN0000KILNSJ,KILNS,Fossil Gas,United Kingdom,53.653,-0.255,35036410.0,81813.0,0.285,0.031
587,48WSTN0000RUGGTU,RUGGT,Fossil Gas,United Kingdom,52.754,-1.913,41112.0,58.0,0.3435,0.0005
588,48WSTN0000RUGPS5,RUGPS,Fossil Hard Coal,United Kingdom,52.754,-1.913,3949340000.0,4135229.0,0.646,0.5266666666666667
589,48WSTN0000RYHPSI,RYHPS,Fossil Gas,United Kingdom,51.762,0.009,845362800.0,2056244.0,0.49775,0.15625
590,48WSTN0000SHBABF,SHBAB,Fossil Gas,United Kingdom,53.602,-0.145,2188728000.0,5110864.0,0.605,0.414
591,48WSTN0000WBUGT2,WBUGT,Fossil Gas,United Kingdom,53.361,-0.812,614553.6,867.0,0.531125,0.00125
592,48WSTN0000WBUPSE,WBUPS,Fossil Hard Coal,United Kingdom,53.361,-0.812,9781574000.0,9635122.0,0.61325,0.2374375
593,48WSTN0000WBURB5,WBURB,Fossil Gas,United Kingdom,53.361,-0.812,8178104000.0,21881486.0,0.7028333333333333,0.6551666666666667
594,48WSTN000ABTHGTK,ABTHGT,Fossil Oil,United Kingdom,51.387,-3.407,469163.01,430.0,0.41790909090909084,0.002454545454545454
595,48WSTN000DIDCGTK,DIDCGT,Fossil Oil,United Kingdom,51.622,-1.261,10608649.0,10845.0,0.400125,0.010625
596,48WSTN000DRAXXGK,DRAXXG,Fossil Gas,United Kingdom,53.737,-0.997,855952.0,1041.0,0.39041666666666663,0.001
597,48WSTN000FERR-GE,FERR-G,Fossil Gas,United Kingdom,53.717,-1.282,59015.7,89.0,0.40549999999999997,0.001
598,48WSTN000FIDL-GA,FIDL-G,Fossil Gas,United Kingdom,53.373,-2.688,462155.3,652.0,0.495875,0.0011250000000000001
599,48WSTN000GRAI-GD,GRAI-G,Fossil Gas,United Kingdom,51.444,0.713,1298143.6,2084.0,0.409375,0.004
600,48WSTN000KEADGT6,KEADGT,Fossil Gas,United Kingdom,53.594,-0.75,226583.19999999998,485.0,0.3685,0.0025
601,48WSTN000KILLPG5,KILLPG,Fossil Gas,United Kingdom,53.653,-0.255,28516935.0,69364.0,0.267125,0.00925
602,48WSTN000KLYN-A4,KLYN-A,Fossil Gas,United Kingdom,52.727,0.38,761.334,2.0,0.0,0.00175
603,48WSTN000LBAR-G1,LBAR-G,Fossil Oil,United Kingdom,52.205,-0.267,316185.0,535.0,0.35950000000000004,0.00425
604,48WSTN000LITT-DA,LITT-D,Fossil Oil,United Kingdom,51.467,0.242,966876.0,1227.0,0.179,0.001
605,48WSTN000LITT-G4,LITT-G,Fossil Oil,United Kingdom,51.467,0.242,14641.54,16.0,0.114,0.0
606,48WSTN000RATSGTB,RATSGT,Fossil Gas,United Kingdom,52.862,-1.25,997321.76,1407.0,0.347,0.0045
607,48WSTN000TAYL-G3,TAYL-G,Fossil Gas,United Kingdom,51.546,-0.258,12788488.0,19286.0,0.38725,0.0105
608,48WSTN1000COTPSQ,COTPS,Fossil Hard Coal,United Kingdom,53.308,-0.775,16023008000.0,12626489.0,0.666625,0.271875
609,49W0000000000342,Den Haag,Fossil Gas,Netherlands,52.076,4.291,528320000.0,1376646.0,0.3515,0.99725
610,49W0000000000431,Diemen,Fossil Gas,Netherlands,52.339,5.02,4325613500.0,10391476.0,0.375875,0.99725
611,49W000000000044-,Eemshaven,Fossil Gas,Netherlands,53.437,6.881,5112066000.0,13585151.0,0.27508333333333335,0.9972500000000001
612,49W000000000045Y,Hemweg,Fossil Hard Coal,Netherlands,52.404,4.846,16416245000.0,22161186.0,0.5625,0.99725
613,49W000000000046W,Velsen,Fossil Gas,Netherlands,52.475,4.618,6414927600.0,11631619.0,0.44525,0.9972500000000001
614,49W000000000047U,Centrale Lage Weide,Fossil Gas,Netherlands,52.102,5.079,132250000.0,312095.0,0.606,0.238
615,49W000000000048S,TNZ150 ELSTA,Fossil Gas,Netherlands,51.336,3.797,1785156000.0,4037227.0,0.30074999999999996,0.8705
616,49W0000000000512,Sloecentrale Unit 10,Fossil Gas,Netherlands,51.449,3.693,2024291000.0,5374226.0,0.387,0.91925
617,49W0000000000520,Borselle 12,Fossil Hard Coal,Netherlands,51.432,3.718,2061110000.0,2116003.0,0.6,0.986
618,49W000000000058P,Enecogen,Fossil Gas,Netherlands,51.958,4.094,4304786000.0,11428641.0,1.345,0.7959999999999999
619,49W000000000061-,Swentibold,Fossil Gas,Netherlands,50.985,5.797,2626336000.0,4906625.0,0.671,0.99725
620,49W000000000063W,Moerdijk,Fossil Gas,Netherlands,51.685,4.581,3591928200.0,9170499.0,0.344,0.99725
621,49W000000000066Q,Eemshaven,Fossil Hard Coal,Netherlands,53.448,6.859,33346090000.0,39124823.0,0.723125,0.975
623,49W000000000070Z,Amer,Fossil Hard Coal,Netherlands,51.708,4.844,15837980000.0,18045379.0,0.6486000000000001,0.994
624,49W000000000072V,LLS380 FL-4,Fossil Gas,Netherlands,52.577,5.53,3321415000.0,8654624.0,0.5785,0.9815
625,49W000000000074R,LLS150FL-5,Fossil Gas,Netherlands,52.577,5.53,1935440000.0,5043182.0,0.33375,0.985
626,49W000000000078J,MVL380 CR10,Fossil Hard Coal,Netherlands,51.945,4.072,12905360000.0,15520346.0,0.616,0.98225
627,49W000000000080W,eem380-ec-7,Fossil Gas,Netherlands,53.437,6.881,1612856000.0,4123329.0,0.33175,0.98225
628,49W000000000082S,eem380-ec-6,Fossil Gas,Netherlands,53.437,6.881,844170700.0,2158155.0,0.17575,0.983
629,49W000000000084O,eem220-ec-5,Fossil Gas,Netherlands,53.437,6.881,2223654000.0,5684860.0,0.45725000000000005,0.983
630,49W000000000086K,eem220-ec-4,Fossil Gas,Netherlands,53.437,6.881,1509579010.0,3859297.0,0.31,0.98225
631,49W000000000088G,eem220-ec-3,Fossil Gas,Netherlands,53.437,6.881,1387972000.0,3548405.0,0.28575,0.983
632,49W000000000090T,ASP003,Fossil Gas,Netherlands,52.102,5.079,76925900.0,181536.0,0.389,0.238
634,49W000000000096H,GDFSUEZ_NL_EC-22,Fossil Gas,Netherlands,53.21,6.03,3894260.0,9190.0,0.00575,0.77075
635,49W000000000100F,Maasvlakte,Fossil Hard Coal,Netherlands,51.944,4.067,6934898000.0,7119593.0,0.6216666666666667,0.7869999999999999
636,49W000000000101D,Maasvlakte,Fossil Hard Coal,Netherlands,51.944,4.067,7155680000.0,7346266.0,0.6533333333333333,0.7869999999999999
637,49W000000000102B,Maasvlakte,Fossil Hard Coal,Netherlands,51.944,4.067,17695790000.0,21281452.0,0.56825,0.99725
638,49W0000000001047,RoCa,Fossil Gas,Netherlands,51.969,4.558,880938000.0,1992289.0,0.25875000000000004,0.99725
639,49W0000000001128,Rijmond,Fossil Gas,Netherlands,51.893,4.347,1448411000.0,3560498.0,0.3325,0.7865
640,49W000000000117Z,Sloecentrale Unit 20,Fossil Gas,Netherlands,51.448,3.693,920757000.0,2444489.0,0.4955,0.651
641,49W0000000001225,Maastroom Energie CV,Fossil Gas,Netherlands,51.89,4.355,83932600.0,222830.0,0.142,0.419
